[
    {
        "id": "041",
        "name": "忠信廣場地下停車場",
        "recharge": 1,
        "price": 50,
        "lat": 25.040260314941406,
        "lon": 121.56820678710938
    },
    {
        "id": "005",
        "name": "立農公園地下停車場",
        "recharge": 1,
        "price": 30,
        "lat": 25.118549346923828,
        "lon": 121.50308227539062
    },
    {
        "id": "078",
        "name": "洲子立體停車場",
        "recharge": 1,
        "price": 40,
        "lat": 25.07946014404297,
        "lon": 121.56935119628906
    },
    {
        "id": "075",
        "name": "中崙高中地下停車場",
        "recharge": 1,
        "price": 30,
        "lat": 25.050010681152344,
        "lon": 121.56139373779297
    },
    {
        "id": "195",
        "name": "臺北製糖所文化園區地下停車場",
        "recharge": 1,
        "price": 20,
        "lat": 25.033550262451172,
        "lon": 121.49432373046875
    },
    {
        "id": "721",
        "name": "東明公共住宅甲區地下停車場",
        "recharge": 1,
        "price": 20,
        "lat": 25.05426025390625,
        "lon": 121.60395050048828
    },
    {
        "id": "229",
        "name": "嘉興公園地下停車場",
        "recharge": 1,
        "price": 30,
        "lat": 25.02165985107422,
        "lon": 121.55193328857422
    },
    {
        "id": "056",
        "name": "大安森林公園地下停車場",
        "recharge": 1,
        "price": 20,
        "lat": 25.031850814819336,
        "lon": 121.5373306274414
    },
    {
        "id": "714",
        "name": "瑞光社會住宅地下停車場",
        "recharge": 1,
        "price": 40,
        "lat": 25.072830200195312,
        "lon": 121.57894897460938
    },
    {
        "id": "022",
        "name": "五分埔公園地下停車場",
        "recharge": 1,
        "price": 50,
        "lat": 25.04676055908203,
        "lon": 121.58027648925781
    },
    {
        "id": "093",
        "name": "建成公園地下停車場",
        "recharge": 1,
        "price": 50,
        "lat": 25.053890228271484,
        "lon": 121.51821899414062
    },
    {
        "id": "019",
        "name": "塔城公園地下停車場",
        "recharge": 1,
        "price": 30,
        "lat": 25.050960540771484,
        "lon": 121.51065063476562
    },
    {
        "id": "071",
        "name": "朝陽公園地下停車場",
        "recharge": 1,
        "price": 40,
        "lat": 25.056129455566406,
        "lon": 121.51368713378906
    },
    {
        "id": "086",
        "name": "振興公園地下停車場",
        "recharge": 1,
        "price": 40,
        "lat": 25.118770599365234,
        "lon": 121.52323150634766
    },
    {
        "id": "120",
        "name": "世貿公園地下停車場",
        "recharge": 1,
        "price": 20,
        "lat": 25.057819366455078,
        "lon": 121.61509704589844
    },
    {
        "id": "087",
        "name": "民有市場地下停車場",
        "recharge": 1,
        "price": 30,
        "lat": 25.060829162597656,
        "lon": 121.54673767089844
    },
    {
        "id": "085",
        "name": "臺北花木批發市場地下停車場",
        "recharge": 1,
        "price": 20,
        "lat": 25.004419326782227,
        "lon": 121.54061889648438
    },
    {
        "id": "052",
        "name": "民生社區中心地下停車場",
        "recharge": 1,
        "price": 30,
        "lat": 25.059839248657227,
        "lon": 121.56297302246094
    },
    {
        "id": "113",
        "name": "興隆公園地下停車場",
        "recharge": 1,
        "price": 20,
        "lat": 25.000699996948242,
        "lon": 121.55136108398438
    },
    {
        "id": "048",
        "name": "信義廣場地下停車場",
        "recharge": 1,
        "price": 50,
        "lat": 25.03306007385254,
        "lon": 121.5664291381836
    },
    {
        "id": "059",
        "name": "市民大道林金段停車場",
        "recharge": 1,
        "price": 30,
        "lat": 25.046859741210938,
        "lon": 121.52792358398438
    },
    {
        "id": "785",
        "name": "廣慈社會住宅2區地下停車場",
        "recharge": 1,
        "price": 30,
        "lat": 25.038619995117188,
        "lon": 121.58101654052734
    },
    {
        "id": "014",
        "name": "興雅國中地下停車場",
        "recharge": 1,
        "price": 30,
        "lat": 25.034900665283203,
        "lon": 121.57279968261719
    },
    {
        "id": "096",
        "name": "石牌國小地下停車場",
        "recharge": 1,
        "price": 30,
        "lat": 25.114519119262695,
        "lon": 121.51313781738281
    },
    {
        "id": "249",
        "name": "啟聰學校地下停車場",
        "recharge": 1,
        "price": 30,
        "lat": 25.074249267578125,
        "lon": 121.51200103759766
    },
    {
        "id": "027",
        "name": "景華公園地下停車場",
        "recharge": 1,
        "price": 20,
        "lat": 24.995180130004883,
        "lon": 121.54374694824219
    },
    {
        "id": "092",
        "name": "濱江國中地下停車場",
        "recharge": 1,
        "price": 20,
        "lat": 25.079559326171875,
        "lon": 121.56168365478516
    },
    {
        "id": "215",
        "name": "莒光立體停車場",
        "recharge": 1,
        "price": 20,
        "lat": 25.03108024597168,
        "lon": 121.50332641601562
    },
    {
        "id": "109",
        "name": "湖興立體停車場",
        "recharge": 1,
        "price": 30,
        "lat": 25.067710876464844,
        "lon": 121.59040069580078
    },
    {
        "id": "666",
        "name": "明倫社會住宅地下停車場",
        "recharge": 1,
        "price": 30,
        "lat": 25.073270797729492,
        "lon": 121.51988220214844
    },
    {
        "id": "024",
        "name": "金華公園地下停車場",
        "recharge": 1,
        "price": 50,
        "lat": 25.029569625854492,
        "lon": 121.53157043457031
    },
    {
        "id": "073",
        "name": "林森公園地下停車場",
        "recharge": 1,
        "price": 30,
        "lat": 25.052349090576172,
        "lon": 121.52642822265625
    },
    {
        "id": "129",
        "name": "西康地下停車場",
        "recharge": 1,
        "price": 20,
        "lat": 25.084720611572266,
        "lon": 121.56375122070312
    },
    {
        "id": "040",
        "name": "健康國小地下停車場",
        "recharge": 1,
        "price": 30,
        "lat": 25.05615997314453,
        "lon": 121.56266784667969
    },
    {
        "id": "114",
        "name": "景美國小地下停車場",
        "recharge": 1,
        "price": 20,
        "lat": 24.988540649414062,
        "lon": 121.5402603149414
    },
    {
        "id": "042",
        "name": "建成國中地下停車場",
        "recharge": 1,
        "price": 50,
        "lat": 25.05164909362793,
        "lon": 121.51973724365234
    },
    {
        "id": "030",
        "name": "大稻埕公園地下停車場",
        "recharge": 1,
        "price": 40,
        "lat": 25.05837059020996,
        "lon": 121.510498046875
    },
    {
        "id": "062",
        "name": "忠孝玉成停車場",
        "recharge": 1,
        "price": 150,
        "lat": 25.04599952697754,
        "lon": 121.58363342285156
    },
    {
        "id": "107",
        "name": "信義國小地下停車場",
        "recharge": 1,
        "price": 40,
        "lat": 25.031829833984375,
        "lon": 121.56246185302734
    },
    {
        "id": "103",
        "name": "南港國小地下停車場",
        "recharge": 1,
        "price": 30,
        "lat": 25.056589126586914,
        "lon": 121.61128997802734
    },
    {
        "id": "039",
        "name": "社園立體停車場",
        "recharge": 1,
        "price": 20,
        "lat": 25.089580535888672,
        "lon": 121.50594329833984
    },
    {
        "id": "760",
        "name": "延平國小地下停車場",
        "recharge": 1,
        "price": 40,
        "lat": 25.066930770874023,
        "lon": 121.51191711425781
    },
    {
        "id": "058",
        "name": "市民大道中林段停車場",
        "recharge": 1,
        "price": 30,
        "lat": 25.04789924621582,
        "lon": 121.5227279663086
    },
    {
        "id": "053",
        "name": "民生立體停車場",
        "recharge": 1,
        "price": 30,
        "lat": 25.058380126953125,
        "lon": 121.5595703125
    },
    {
        "id": "713",
        "name": "新奇岩社會住宅地下停車場",
        "recharge": 1,
        "price": 30,
        "lat": 25.123260498046875,
        "lon": 121.50334167480469
    },
    {
        "id": "783",
        "name": "小彎社會住宅地下停車場",
        "recharge": 1,
        "price": 30,
        "lat": 25.057329177856445,
        "lon": 121.59432220458984
    },
    {
        "id": "784",
        "name": "廣慈社會住宅1區地下停車場",
        "recharge": 1,
        "price": 30,
        "lat": 25.039690017700195,
        "lon": 121.58287048339844
    },
    {
        "id": "025",
        "name": "古亭國中地下停車場",
        "recharge": 1,
        "price": 30,
        "lat": 25.023839950561523,
        "lon": 121.510009765625
    },
    {
        "id": "032",
        "name": "西松高中地下停車場",
        "recharge": 1,
        "price": 30,
        "lat": 25.05582046508789,
        "lon": 121.56607818603516
    },
    {
        "id": "165",
        "name": "玉成公園地下停車場",
        "recharge": 1,
        "price": 20,
        "lat": 25.041799545288086,
        "lon": 121.58690643310547
    },
    {
        "id": "128",
        "name": "萬興國小地下停車場",
        "recharge": 1,
        "price": 20,
        "lat": 24.989450454711914,
        "lon": 121.57666015625
    },
    {
        "id": "111",
        "name": "蘭雅公園地下停車場",
        "recharge": 1,
        "price": 30,
        "lat": 25.109630584716797,
        "lon": 121.52924346923828
    },
    {
        "id": "037",
        "name": "大安高工地下停車場",
        "recharge": 1,
        "price": 30,
        "lat": 25.032569885253906,
        "lon": 121.5409164428711
    },
    {
        "id": "718",
        "name": "青年一期社會住宅地下停車場",
        "recharge": 1,
        "price": 30,
        "lat": 25.020259857177734,
        "lon": 121.50346374511719
    },
    {
        "id": "049",
        "name": "大業立體停車場",
        "recharge": 1,
        "price": 30,
        "lat": 25.137739181518555,
        "lon": 121.5028076171875
    },
    {
        "id": "067",
        "name": "雙園國中地下停車場",
        "recharge": 1,
        "price": 30,
        "lat": 25.027820587158203,
        "lon": 121.4915771484375
    },
    {
        "id": "016",
        "name": "中山堂地下停車場",
        "recharge": 1,
        "price": 50,
        "lat": 25.04404067993164,
        "lon": 121.51058197021484
    },
    {
        "id": "002",
        "name": "松壽廣場地下停車場",
        "recharge": 1,
        "price": 30,
        "lat": 25.03714942932129,
        "lon": 121.56640625
    },
    {
        "id": "043",
        "name": "興中立體停車場",
        "recharge": 1,
        "price": 20,
        "lat": 25.05624008178711,
        "lon": 121.60678100585938
    },
    {
        "id": "088",
        "name": "三張里地下停車場",
        "recharge": 1,
        "price": 30,
        "lat": 25.030670166015625,
        "lon": 121.56693267822266
    },
    {
        "id": "020",
        "name": "百齡高中地下停車場",
        "recharge": 1,
        "price": 10,
        "lat": 25.085830688476562,
        "lon": 121.52359008789062
    },
    {
        "id": "044",
        "name": "青年公園高爾夫球場地下停車場",
        "recharge": 1,
        "price": 30,
        "lat": 25.02490997314453,
        "lon": 121.50729370117188
    },
    {
        "id": "081",
        "name": "康樂立體停車場",
        "recharge": 1,
        "price": 30,
        "lat": 25.072160720825195,
        "lon": 121.61910247802734
    },
    {
        "id": "055",
        "name": "市民大道塔城段停車場",
        "recharge": 1,
        "price": 20,
        "lat": 25.050260543823242,
        "lon": 121.50984954833984
    },
    {
        "id": "034",
        "name": "辛亥國小地下停車場",
        "recharge": 1,
        "price": 20,
        "lat": 25.006019592285156,
        "lon": 121.5584487915039
    },
    {
        "id": "720",
        "name": "健康2區社會住宅地下停車場",
        "recharge": 1,
        "price": 30,
        "lat": 25.05447006225586,
        "lon": 121.56585693359375
    },
    {
        "id": "054",
        "name": "北寧路地下停車場",
        "recharge": 1,
        "price": 40,
        "lat": 25.04907989501953,
        "lon": 121.55254364013672
    },
    {
        "id": "089",
        "name": "春光公園地下停車場",
        "recharge": 1,
        "price": 30,
        "lat": 25.04248046875,
        "lon": 121.58097839355469
    },
    {
        "id": "084",
        "name": "麗湖國小地下停車場",
        "recharge": 1,
        "price": 20,
        "lat": 25.073049545288086,
        "lon": 121.60167694091797
    },
    {
        "id": "829",
        "name": "安康公車調度站臨時平面停車場",
        "recharge": 1,
        "price": 20,
        "lat": 25.06732940673828,
        "lon": 121.61321258544922
    },
    {
        "id": "031",
        "name": "附中公園地下停車場",
        "recharge": 1,
        "price": 50,
        "lat": 25.03622055053711,
        "lon": 121.5424575805664
    },
    {
        "id": "082",
        "name": "永盛公園地下停車場",
        "recharge": 1,
        "price": 50,
        "lat": 25.05925941467285,
        "lon": 121.52481842041016
    },
    {
        "id": "105",
        "name": "玉成國小地下停車場",
        "recharge": 1,
        "price": 30,
        "lat": 25.05328941345215,
        "lon": 121.59293365478516
    },
    {
        "id": "640",
        "name": "萬華車站地下停車場",
        "recharge": 1,
        "price": 30,
        "lat": 25.03363037109375,
        "lon": 121.50006866455078
    },
    {
        "id": "702",
        "name": "大港墘公園地下停車場",
        "recharge": 1,
        "price": 40,
        "lat": 25.078510284423828,
        "lon": 121.57430267333984
    },
    {
        "id": "029",
        "name": "東湖國小地下停車場",
        "recharge": 1,
        "price": 40,
        "lat": 25.06855010986328,
        "lon": 121.61582946777344
    },
    {
        "id": "057",
        "name": "市民大道公中段停車場",
        "recharge": 1,
        "price": 40,
        "lat": 25.04833984375,
        "lon": 121.51917266845703
    },
    {
        "id": "097",
        "name": "海光公園地下停車場",
        "recharge": 1,
        "price": 20,
        "lat": 25.080930709838867,
        "lon": 121.5084228515625
    },
    {
        "id": "124",
        "name": "社子國小地下停車場",
        "recharge": 1,
        "price": 20,
        "lat": 25.091339111328125,
        "lon": 121.50215911865234
    },
    {
        "id": "074",
        "name": "偶戲博物館地下停車場",
        "recharge": 1,
        "price": 30,
        "lat": 25.047040939331055,
        "lon": 121.56175994873047
    },
    {
        "id": "001",
        "name": "府前廣場地下停車場",
        "recharge": 1,
        "price": 30,
        "lat": 25.036529541015625,
        "lon": 121.5621109008789
    },
    {
        "id": "098",
        "name": "港富立體停車場(機械)",
        "recharge": 1,
        "price": 30,
        "lat": 25.08049964904785,
        "lon": 121.57803344726562
    },
    {
        "id": "768",
        "name": "興隆D1社會住宅地下停車場",
        "recharge": 1,
        "price": 20,
        "lat": 24.988330841064453,
        "lon": 121.55792236328125
    },
    {
        "id": "015",
        "name": "峨眉立體停車場",
        "recharge": 1,
        "price": 50,
        "lat": 25.04422950744629,
        "lon": 121.50531005859375
    },
    {
        "id": "099",
        "name": "長安國小地下停車場",
        "recharge": 1,
        "price": 40,
        "lat": 25.05034065246582,
        "lon": 121.53131866455078
    },
    {
        "id": "066",
        "name": "揚雅立體停車場",
        "recharge": 1,
        "price": 20,
        "lat": 25.067459106445312,
        "lon": 121.51580810546875
    },
    {
        "id": "080",
        "name": "龍門國中地下停車場",
        "recharge": 1,
        "price": 30,
        "lat": 25.024070739746094,
        "lon": 121.53803253173828
    },
    {
        "id": "070",
        "name": "榮星花園地下停車場",
        "recharge": 1,
        "price": 40,
        "lat": 25.064199447631836,
        "lon": 121.53825378417969
    },
    {
        "id": "102",
        "name": "承德公園地下停車場",
        "recharge": 1,
        "price": 10,
        "lat": 25.089750289916992,
        "lon": 121.52227020263672
    },
    {
        "id": "090",
        "name": "萬板地下停車場",
        "recharge": 1,
        "price": 30,
        "lat": 25.02861976623535,
        "lon": 121.49125671386719
    },
    {
        "id": "069",
        "name": "青年公園棒球場地下停車場",
        "recharge": 1,
        "price": 30,
        "lat": 25.023799896240234,
        "lon": 121.50306701660156
    },
    {
        "id": "036",
        "name": "大豐公園地下停車場",
        "recharge": 1,
        "price": 40,
        "lat": 25.13113021850586,
        "lon": 121.50420379638672
    },
    {
        "id": "072",
        "name": "福林公園地下停車場",
        "recharge": 1,
        "price": 30,
        "lat": 25.095949172973633,
        "lon": 121.53069305419922
    },
    {
        "id": "018",
        "name": "洛陽綜合立體停車場",
        "recharge": 1,
        "price": 20,
        "lat": 25.047710418701172,
        "lon": 121.50567626953125
    },
    {
        "id": "188",
        "name": "松山車站地下停車場",
        "recharge": 1,
        "price": 40,
        "lat": 25.04829978942871,
        "lon": 121.57846069335938
    },
    {
        "id": "372",
        "name": "八德立體停車場",
        "recharge": 1,
        "price": 40,
        "lat": 25.049589157104492,
        "lon": 121.57140350341797
    },
    {
        "id": "719",
        "name": "健康1區社會住宅地下停車場",
        "recharge": 1,
        "price": 30,
        "lat": 25.054380416870117,
        "lon": 121.56407928466797
    },
    {
        "id": "119",
        "name": "大龍國小地下停車場",
        "recharge": 1,
        "price": 30,
        "lat": 25.07411003112793,
        "lon": 121.5172119140625
    },
    {
        "id": "023",
        "name": "民權公園地下停車場",
        "recharge": 1,
        "price": 30,
        "lat": 25.061359405517578,
        "lon": 121.5589599609375
    },
    {
        "id": "060",
        "name": "台北時代寓所地下平面停車場",
        "recharge": 1,
        "price": 60,
        "lat": 25.044370651245117,
        "lon": 121.52279663085938
    },
    {
        "id": "003",
        "name": "臺北市災害應變中心地下停車場",
        "recharge": 1,
        "price": 30,
        "lat": 25.028850555419922,
        "lon": 121.56590270996094
    },
    {
        "id": "068",
        "name": "文昌國小地下停車場",
        "recharge": 1,
        "price": 20,
        "lat": 25.099409103393555,
        "lon": 121.5219497680664
    },
    {
        "id": "193",
        "name": "松山國小地下停車場",
        "recharge": 1,
        "price": 40,
        "lat": 25.05035972595215,
        "lon": 121.57852172851562
    },
    {
        "id": "033",
        "name": "進安公園地下停車場",
        "recharge": 1,
        "price": 30,
        "lat": 25.046039581298828,
        "lon": 121.5376968383789
    },
    {
        "id": "021",
        "name": "前港公園地下停車場",
        "recharge": 1,
        "price": 20,
        "lat": 25.086029052734375,
        "lon": 121.52131652832031
    },
    {
        "id": "722",
        "name": "東明公共住宅乙區地下停車場",
        "recharge": 1,
        "price": 20,
        "lat": 25.054529190063477,
        "lon": 121.60407257080078
    },
    {
        "id": "106",
        "name": "蓬萊國小地下停車場",
        "recharge": 1,
        "price": 40,
        "lat": 25.056489944458008,
        "lon": 121.51679229736328
    },
    {
        "id": "035",
        "name": "成淵高中地下停車場",
        "recharge": 1,
        "price": 40,
        "lat": 25.0604305267334,
        "lon": 121.52017974853516
    },
    {
        "id": "028",
        "name": "松山高中地下停車場",
        "recharge": 1,
        "price": 30,
        "lat": 25.044069290161133,
        "lon": 121.56405639648438
    },
    {
        "id": "038",
        "name": "成德立體停車場",
        "recharge": 1,
        "price": 20,
        "lat": 25.045970916748047,
        "lon": 121.586181640625
    },
    {
        "id": "079",
        "name": "僑安地下停車場",
        "recharge": 1,
        "price": 40,
        "lat": 25.04043960571289,
        "lon": 121.55658721923828
    },
    {
        "id": "007",
        "name": "萬華國中地下停車場",
        "recharge": 1,
        "price": 20,
        "lat": 25.0291805267334,
        "lon": 121.49957275390625
    },
    {
        "id": "187",
        "name": "松山工農地下停車場",
        "recharge": 1,
        "price": 30,
        "lat": 25.039579391479492,
        "lon": 121.57228088378906
    }
]